[{"name":"Starbucks","description":null,"source_url":"https://foursquare.com/v/starbucks/4ac66e63f964a52052b420e3","rating":null,"source":"foursquare","street":"1501 Fillmore St","zip":null,"city":"San Francisco","lat":37.78325111587437,"lng":-122.43280326510188},{"name":"Starbucks","description":null,"source_url":"https://foursquare.com/v/starbucks/49bee717f964a520f3541fe3","rating":null,"source":"foursquare","street":"1390 Market St","zip":null,"city":"San Francisco","lat":37.776855,"lng":-122.417336},{"name":"Starbucks","description":null,"source_url":"https://foursquare.com/v/starbucks/49e74547f964a52082641fe3","rating":null,"source":"foursquare","street":"490 Brannan St","zip":null,"city":"San Francisco","lat":37.778676627176424,"lng":-122.39678096788764},{"name":"Starbucks","description":null,"source_url":"https://foursquare.com/v/starbucks/431e2d80f964a5207c271fe3","rating":null,"source":"foursquare","street":"120 4th St","zip":null,"city":"San Francisco","lat":37.784104714631205,"lng":-122.40405678749084},{"name":"Starbucks","description":null,"source_url":"https://foursquare.com/v/starbucks/4ad6425ef964a520260621e3","rating":null,"source":"foursquare","street":"199 Fremont St","zip":null,"city":"San Francisco","lat":37.78992974186561,"lng":-122.39451885223389},{"name":"Starbucks","description":null,"source_url":"https://foursquare.com/v/starbucks/4feccbb3e4b0bd06d6921aaf","rating":null,"source":"foursquare","street":"442 Geary St","zip":null,"city":"San Francisco","lat":37.78704637488963,"lng":-122.41053760028113},{"name":"Starbucks","description":null,"source_url":"https://foursquare.com/v/starbucks/4addf20ff964a520986621e3","rating":null,"source":"foursquare","street":"44 Montgomery St","zip":null,"city":"San Francisco","lat":37.78945821328587,"lng":-122.4022794115935},{"name":"Starbucks","description":null,"source_url":"https://foursquare.com/v/starbucks/4a5b5f9af964a5200bbb1fe3","rating":null,"source":"foursquare","street":"1231 Market St","zip":null,"city":"San Francisco","lat":37.77844326422595,"lng":-122.41520017575083},{"name":"Starbucks","description":null,"source_url":"https://foursquare.com/v/starbucks/4a55303af964a520d0b31fe3","rating":null,"source":"foursquare","street":"350 Rhode Island St","zip":null,"city":"San Francisco","lat":37.765824,"lng":-122.403608},{"name":"Starbucks","description":null,"source_url":"https://foursquare.com/v/starbucks/4297b480f964a52065241fe3","rating":null,"source":"foursquare","street":"3995 24th St","zip":null,"city":"San Francisco","lat":37.751406,"lng":-122.431819}]